[
  {
    "fid" : 1,
    "lon" : 126.6099131,
    "lat" : 36.34411406,
    "name" : "보령배드민턴구장1",
    "type" : "기타시설",
    "city" : "서울특별시",
    "gugun" : "도봉구",
    "tel" : "041-930-3329",
    "createDate" : "20240521",
    "erdsgn" : "N",
    "updated" : "2025-05-30",
    "star" : 4.0,
    "fulladdr" : "충청남도 보령시 명천동 1089-1  33481"
  },
  {
    "fid" : 2,
    "lon" : 126.6099131,
    "lat" : 36.34411406,
    "name" : "보령배드민턴구장2",
    "type" : "기타시설",
    "city" : "충청남도",
    "gugun" : "보령시",
    "tel" : "041-930-3329",
    "createDate" : "20200521",
    "erdsgn" : "Y",
    "updated" : "2025-05-30",
    "star" : 1.0,
    "fulladdr" : "충청남도 보령시 명천동 1089-1  33481"
  },
  {
    "fid" : 3,
    "lon" : 126.6099131,
    "lat" : 36.34411406,
    "name" : "보령배드민턴구장3",
    "type" : "기타시설",
    "city" : "서울특별시",
    "gugun" : "도봉구",
    "tel" : "041-930-3329",
    "createDate" : "20150521",
    "erdsgn" : "N",
    "updated" : "2025-05-30",
    "star" : 2.1,
    "fulladdr" : "충청남도 보령시 명천동 1089-1  33481"
  },
  {
    "fid" : 4,
    "lon" : 126.6099131,
    "lat" : 36.34411406,
    "name" : "보령배드민턴구장4",
    "type" : "기타시설",
    "city" : "충청남도",
    "gugun" : "보령시",
    "tel" : "041-930-3329",
    "createDate" : "20100521",
    "erdsgn" : "Y",
    "updated" : "2025-05-30",
    "star" : 3.0,
    "fulladdr" : "충청남도 보령시 명천동 1089-1  33481"
  },
  {
    "fid" : 5,
    "lon" : 126.6099131,
    "lat" : 36.34411406,
    "name" : "보령배드민턴구장5",
    "type" : "기타시설",
    "city" : "서울특별시",
    "gugun" : "도봉구",
    "tel" : "041-930-3329",
    "createDate" : "20050521",
    "erdsgn" : "N",
    "updated" : "2025-05-30",
    "star" : 4.0,
    "fulladdr" : "충청남도 보령시 명천동 1089-1  33481"
  },
  {
    "fid" : 6,
    "lon" : 126.6099131,
    "lat" : 36.34411406,
    "name" : "보령배드민턴구장6",
    "type" : "기타시설",
    "city" : "충청남도",
    "gugun" : "보령시",
    "tel" : "041-930-3329",
    "createDate" : "20000521",
    "erdsgn" : "Y",
    "updated" : "2025-05-30",
    "star" : 1.0,
    "fulladdr" : "충청남도 보령시 명천동 1089-1  33481"
  },
  {
    "fid" : 7,
    "lon" : 126.6099131,
    "lat" : 36.34411406,
    "name" : "보령배드민턴구장7",
    "type" : "기타시설",
    "city" : "서울특별시",
    "gugun" : "도봉구",
    "tel" : "041-930-3329",
    "createDate" : "19950521",
    "erdsgn" : "N",
    "updated" : "2025-05-30",
    "star" : 2.1,
    "fulladdr" : "충청남도 보령시 명천동 1089-1  33481"
  },
  {
    "fid" : 8,
    "lon" : 126.6099131,
    "lat" : 36.34411406,
    "name" : "보령배드민턴구장8",
    "type" : "기타시설",
    "city" : "충청남도",
    "gugun" : "보령시",
    "tel" : "041-930-3329",
    "createDate" : "19900521",
    "erdsgn" : "Y",
    "updated" : "2025-05-30",
    "star" : 3.0,
    "fulladdr" : "충청남도 보령시 명천동 1089-1  33481"
  },
  {
    "fid" : 9,
    "lon" : 126.6099131,
    "lat" : 36.34411406,
    "name" : "보령배드민턴구장9",
    "type" : "기타시설",
    "city" : "서울특별시",
    "gugun" : "도봉구",
    "tel" : "041-930-3329",
    "createDate" : "19850521",
    "erdsgn" : "N",
    "updated" : "2025-05-30",
    "star" : 4.0,
    "fulladdr" : "충청남도 보령시 명천동 1089-1  33481"
  },
  {
    "fid" : 10,
    "lon" : 126.6099131,
    "lat" : 36.34411406,
    "name" : "보령배드민턴구장10",
    "type" : "기타시설",
    "city" : "충청남도",
    "gugun" : "보령시",
    "tel" : "041-930-3329",
    "createDate" : "19800521",
    "erdsgn" : "Y",
    "updated" : "2025-05-30",
    "star" : 1.0,
    "fulladdr" : "충청남도 보령시 명천동 1089-1  33481"
  },
  {
    "fid" : 11,
    "lon" : 126.6099131,
    "lat" : 36.34411406,
    "name" : "보령배드민턴구장11",
    "type" : "기타시설",
    "city" : "서울특별시",
    "gugun" : "도봉구",
    "tel" : "041-930-3329",
    "createDate" : "20240521",
    "erdsgn" : "N",
    "updated" : "2025-05-30",
    "star" : 4.0,
    "fulladdr" : "충청남도 보령시 명천동 1089-1  33481"
  },
  {
    "fid" : 12,
    "lon" : 126.6099131,
    "lat" : 36.34411406,
    "name" : "보령배드민턴구장12",
    "type" : "기타시설",
    "city" : "충청남도",
    "gugun" : "보령시",
    "tel" : "041-930-3329",
    "createDate" : "20200521",
    "erdsgn" : "Y",
    "updated" : "2025-05-30",
    "star" : 1.0,
    "fulladdr" : "충청남도 보령시 명천동 1089-1  33481"
  },
  {
    "fid" : 13,
    "lon" : 126.6099131,
    "lat" : 36.34411406,
    "name" : "보령배드민턴구장13",
    "type" : "기타시설",
    "city" : "서울특별시",
    "gugun" : "도봉구",
    "tel" : "041-930-3329",
    "createDate" : "20150521",
    "erdsgn" : "N",
    "updated" : "2025-05-30",
    "star" : 2.1,
    "fulladdr" : "충청남도 보령시 명천동 1089-1  33481"
  },
  {
    "fid" : 14,
    "lon" : 126.6099131,
    "lat" : 36.34411406,
    "name" : "보령배드민턴구장14",
    "type" : "기타시설",
    "city" : "충청남도",
    "gugun" : "보령시",
    "tel" : "041-930-3329",
    "createDate" : "20100521",
    "erdsgn" : "Y",
    "updated" : "2025-05-30",
    "star" : 3.0,
    "fulladdr" : "충청남도 보령시 명천동 1089-1  33481"
  },
  {
    "fid" : 15,
    "lon" : 126.6099131,
    "lat" : 36.34411406,
    "name" : "보령배드민턴구장15",
    "type" : "기타시설",
    "city" : "서울특별시",
    "gugun" : "도봉구",
    "tel" : "041-930-3329",
    "createDate" : "20050521",
    "erdsgn" : "N",
    "updated" : "2025-05-30",
    "star" : 4.0,
    "fulladdr" : "충청남도 보령시 명천동 1089-1  33481"
  },
  {
    "fid" : 16,
    "lon" : 126.6099131,
    "lat" : 36.34411406,
    "name" : "보령배드민턴구장16",
    "type" : "기타시설",
    "city" : "충청남도",
    "gugun" : "보령시",
    "tel" : "041-930-3329",
    "createDate" : "20000521",
    "erdsgn" : "Y",
    "updated" : "2025-05-30",
    "star" : 1.0,
    "fulladdr" : "충청남도 보령시 명천동 1089-1  33481"
  },
  {
    "fid" : 17,
    "lon" : 126.6099131,
    "lat" : 36.34411406,
    "name" : "보령배드민턴구장17",
    "type" : "기타시설",
    "city" : "서울특별시",
    "gugun" : "도봉구",
    "tel" : "041-930-3329",
    "createDate" : "19950521",
    "erdsgn" : "N",
    "updated" : "2025-05-30",
    "star" : 2.1,
    "fulladdr" : "충청남도 보령시 명천동 1089-1  33481"
  },
  {
    "fid" : 18,
    "lon" : 126.6099131,
    "lat" : 36.34411406,
    "name" : "보령배드민턴구장18",
    "type" : "기타시설",
    "city" : "충청남도",
    "gugun" : "보령시",
    "tel" : "041-930-3329",
    "createDate" : "19900521",
    "erdsgn" : "Y",
    "updated" : "2025-05-30",
    "star" : 3.0,
    "fulladdr" : "충청남도 보령시 명천동 1089-1  33481"
  },
  {
    "fid" : 19,
    "lon" : 126.6099131,
    "lat" : 36.34411406,
    "name" : "보령배드민턴구장19",
    "type" : "기타시설",
    "city" : "서울특별시",
    "gugun" : "도봉구",
    "tel" : "041-930-3329",
    "createDate" : "19850521",
    "erdsgn" : "N",
    "updated" : "2025-05-30",
    "star" : 4.0,
    "fulladdr" : "충청남도 보령시 명천동 1089-1  33481"
  },
  {
    "fid" : 20,
    "lon" : 126.6099131,
    "lat" : 36.34411406,
    "name" : "보령배드민턴구장20",
    "type" : "기타시설",
    "city" : "충청남도",
    "gugun" : "보령시",
    "tel" : "041-930-3329",
    "createDate" : "19800521",
    "erdsgn" : "Y",
    "updated" : "2025-05-30",
    "star" : 1.0,
    "fulladdr" : "충청남도 보령시 명천동 1089-1  33481"
  }
]